{
"type": "FeatureCollection",
"name": "settlement_point_1977",
"crs": { "type": "name", "properties": { "name": "urn:ogc:def:crs:OGC:1.3:CRS84" } },
"features": [
{ "type": "Feature", "properties": { "settlement": "Settlement", "name_he": "אורנית", "name_en": "Oranit", "name_fr": "Oranit", "name_es": "Oranit", "name_ar": "اورانيت", "date_estab": 1985.0, "hectare": 100, "object_id": 0 }, "geometry": { "type": "Point", "coordinates": [ 34.99171, 32.13095 ] } },
{ "type": "Feature", "properties": { "settlement": "Settlement", "name_he": "עתניאל", "name_en": "Otniel", "name_fr": "Otniel", "name_es": "Otniel", "name_ar": "عونتئيل", "date_estab": 1983.0, "hectare": 18, "object_id": 1 }, "geometry": { "type": "Point", "coordinates": [ 35.02953, 31.43955 ] } },
{ "type": "Feature", "properties": { "settlement": "Settlement", "name_he": "פדואל", "name_en": "Pedu'el", "name_fr": "Pedu'el", "name_es": "Peduel", "name_ar": "بدوئيل", "date_estab": 1984.0, "hectare": 23, "object_id": 2 }, "geometry": { "type": "Point", "coordinates": [ 35.05178, 32.06225 ] } },
{ "type": "Feature", "properties": { "settlement": "Settlement", "name_he": "רימונים", "name_en": "Rimmonim", "name_fr": "Rimmonim", "name_es": "Rimmonim", "name_ar": "ريمونيم", "date_estab": 1977.0, "hectare": 20, "object_id": 3 }, "geometry": { "type": "Point", "coordinates": [ 35.34091, 31.93386 ] } },
{ "type": "Feature", "properties": { "settlement": "Settlement", "name_he": "רותם", "name_en": "Rotem", "name_fr": "Rotem", "name_es": "Rotem", "name_ar": "روتم", "date_estab": 1984.0, "hectare": 3, "object_id": 4 }, "geometry": { "type": "Point", "coordinates": [ 35.51877, 32.33649 ] } },
{ "type": "Feature", "properties": { "settlement": "Settlement", "name_he": "קדר", "name_en": "Qedar", "name_fr": "Qedar", "name_es": "Kedar", "name_ar": "كيدار", "date_estab": 1985.0, "hectare": 23, "object_id": 5 }, "geometry": { "type": "Point", "coordinates": [ 35.31054, 31.75358 ] } },
{ "type": "Feature", "properties": { "settlement": "Settlement", "name_he": "רחלים", "name_en": "Rechelim", "name_fr": "Rechelim", "name_es": "Rechelim", "name_ar": "رحاليم", "date_estab": 1991.0, "hectare": 8, "object_id": 6 }, "geometry": { "type": "Point", "coordinates": [ 35.25663, 32.10223 ] } },
{ "type": "Feature", "properties": { "settlement": "Settlement", "name_he": "ריחן", "name_en": "Rehan", "name_fr": "Rehan", "name_es": "Rehan", "name_ar": "رحان", "date_estab": 1977.0, "hectare": 11, "object_id": 7 }, "geometry": { "type": "Point", "coordinates": [ 35.1369, 32.46921 ] } },
{ "type": "Feature", "properties": { "settlement": "Settlement", "name_he": "רבבה", "name_en": "Revava", "name_fr": "Revava", "name_es": "Revava", "name_ar": "رفافا", "date_estab": 1991.0, "hectare": 26, "object_id": 8 }, "geometry": { "type": "Point", "coordinates": [ 35.12871, 32.11873 ] } },
{ "type": "Feature", "properties": { "settlement": "Settlement", "name_he": "נעלה", "name_en": "Na'ale", "name_fr": "Na'ale", "name_es": "Naale", "name_ar": "نعليه", "date_estab": 1988.0, "hectare": 27, "object_id": 9 }, "geometry": { "type": "Point", "coordinates": [ 35.06413, 31.96305 ] } },
{ "type": "Feature", "properties": { "settlement": "Settlement", "name_he": "נעמ\"ה", "name_en": "Naama", "name_fr": "Naama", "name_es": "Naama", "name_ar": "نعماة", "date_estab": 1982.0, "hectare": 13, "object_id": 10 }, "geometry": { "type": "Point", "coordinates": [ 35.4679, 31.90676 ] } },
{ "type": "Feature", "properties": { "settlement": "Settlement", "name_he": "נחליאל", "name_en": "Nahaliel", "name_fr": "Nahaliel", "name_es": "Nahaliel", "name_ar": "ناحلئيل", "date_estab": 1984.0, "hectare": 10, "object_id": 11 }, "geometry": { "type": "Point", "coordinates": [ 35.13964, 31.97427 ] } },
{ "type": "Feature", "properties": { "settlement": "Settlement", "name_he": "מגדל עוז", "name_en": "Migdal Oz", "name_fr": "Migdal Oz", "name_es": "Migdal Oz", "name_ar": "مجدال عوز", "date_estab": 1977.0, "hectare": 29, "object_id": 12 }, "geometry": { "type": "Point", "coordinates": [ 35.11312, 31.36363 ] } },
{ "type": "Feature", "properties": { "settlement": "Settlement", "name_he": "מגדלים", "name_en": "Migdalim", "name_fr": "Migdalim", "name_es": "Migdalim", "name_ar": "مجداليم", "date_estab": 1983.0, "hectare": 25, "object_id": 13 }, "geometry": { "type": "Point", "coordinates": [ 35.19744, 31.76217 ] } },
{ "type": "Feature", "properties": { "settlement": "Settlement", "name_he": "מצפה יריחו", "name_en": "Mitzpe Yeriho", "name_fr": "Mitzpe Yeriho", "name_es": "Mitzpé Yeriho", "name_ar": "مطل اريحا", "date_estab": 1978.0, "hectare": 44, "object_id": 14 }, "geometry": { "type": "Point", "coordinates": [ 35.3948, 31.81629 ] } },
{ "type": "Feature", "properties": { "settlement": "Settlement", "name_he": "ניל\"י", "name_en": "Nili", "name_fr": "Nili", "name_es": "Nili", "name_ar": "نيلي", "date_estab": 1981.0, "hectare": 26, "object_id": 15 }, "geometry": { "type": "Point", "coordinates": [ 35.0478, 31.96353 ] } },
{ "type": "Feature", "properties": { "settlement": "Settlement", "name_he": "נירן", "name_en": "Niran", "name_fr": "Niran", "name_es": "Niran", "name_ar": "نيران", "date_estab": 1977.0, "hectare": 12, "object_id": 16 }, "geometry": { "type": "Point", "coordinates": [ 35.45603, 31.96771 ] } },
{ "type": "Feature", "properties": { "settlement": "Settlement", "name_he": "נופים", "name_en": "Nofim", "name_fr": "Nofim", "name_es": "Nofim", "name_ar": "نوفيم", "date_estab": 1987.0, "hectare": 24, "object_id": 17 }, "geometry": { "type": "Point", "coordinates": [ 35.10137, 32.15509 ] } },
{ "type": "Feature", "properties": { "settlement": "Settlement", "name_he": "נוקדים", "name_en": "Nokdim", "name_fr": "Nokdim", "name_es": "Nokdim", "name_ar": "نكوديم", "date_estab": 1982.0, "hectare": 36, "object_id": 18 }, "geometry": { "type": "Point", "coordinates": [ 35.24713, 31.64891 ] } },
{ "type": "Feature", "properties": { "settlement": "Settlement", "name_he": "נווה דניאל", "name_en": "Neve Daniel", "name_fr": "Neve Daniel", "name_es": "Nevé Daniel", "name_ar": "نفي دانئيل", "date_estab": 1982.0, "hectare": 28, "object_id": 19 }, "geometry": { "type": "Point", "coordinates": [ 35.14375, 31.67893 ] } },
{ "type": "Feature", "properties": { "settlement": "Settlement", "name_he": "חלמיש", "name_en": "Neve Halamish", "name_fr": "Neve Halamish", "name_es": "Nevé Halamish", "name_ar": "نفي حلميش", "date_estab": 1977.0, "hectare": 38, "object_id": 20 }, "geometry": { "type": "Point", "coordinates": [ 35.12693, 32.00677 ] } },
{ "type": "Feature", "properties": { "settlement": "Settlement", "name_he": "מעלה לבונה", "name_en": "Ma'ale Levona", "name_fr": "Ma'ale Levona", "name_es": "Maalé Levona", "name_ar": "معاليه ليفونا", "date_estab": 1983.0, "hectare": 17, "object_id": 21 }, "geometry": { "type": "Point", "coordinates": [ 35.24029, 32.05484 ] } },
{ "type": "Feature", "properties": { "settlement": "Settlement", "name_he": "מעלה מכמש", "name_en": "Ma'ale Mikhmas", "name_fr": "Ma'ale Mikhmas", "name_es": "Maalé Mikhmas", "name_ar": "معاليه ميخماس", "date_estab": 1981.0, "hectare": 26, "object_id": 22 }, "geometry": { "type": "Point", "coordinates": [ 35.30685, 31.87934 ] } },
{ "type": "Feature", "properties": { "settlement": "Settlement", "name_he": "מעלה שומרון", "name_en": "Ma'ale Shomeron", "name_fr": "Ma'ale Shomeron", "name_es": "Maalé Shomron", "name_ar": "معاليه شومرون", "date_estab": 1980.0, "hectare": 25, "object_id": 23 }, "geometry": { "type": "Point", "coordinates": [ 35.07057, 32.16488 ] } },
{ "type": "Feature", "properties": { "settlement": "Settlement", "name_he": "כוכב השחר", "name_en": "Kochav Hashachar", "name_fr": "Kochav Hashachar", "name_es": "Kohav Hashachar", "name_ar": "كوخاف هشاحر", "date_estab": 1977.0, "hectare": 39, "object_id": 24 }, "geometry": { "type": "Point", "coordinates": [ 35.34853, 31.95962 ] } },
{ "type": "Feature", "properties": { "settlement": "Settlement", "name_he": "כוכב יעקב", "name_en": "Kochav Ya'akov", "name_fr": "Kochav Ya'akov", "name_es": "Kohav Yaakov", "name_ar": "كوخاف يعقوب", "date_estab": 1985.0, "hectare": 56, "object_id": 25 }, "geometry": { "type": "Point", "coordinates": [ 35.24289, 31.88035 ] } },
{ "type": "Feature", "properties": { "settlement": "Settlement", "name_he": "מעלה עמוס", "name_en": "Ma'ale Amos", "name_fr": "Ma'ale Amos", "name_es": "Maalé Amos", "name_ar": "معاليه عاموس", "date_estab": 1981.0, "hectare": 16, "object_id": 26 }, "geometry": { "type": "Point", "coordinates": [ 35.22628, 31.59931 ] } },
{ "type": "Feature", "properties": { "settlement": "Settlement", "name_he": "מבוא דותן", "name_en": "Mevo Dotan", "name_fr": "Mevo Dotan", "name_es": "Mevo Dotan", "name_ar": "مفو دوتان", "date_estab": 1978.0, "hectare": 18, "object_id": 27 }, "geometry": { "type": "Point", "coordinates": [ 35.17457, 32.42055 ] } },
{ "type": "Feature", "properties": { "settlement": "Settlement", "name_he": "מצדות יהודה", "name_en": "Mezadot Yehuda", "name_fr": "Mezadot Yehuda", "name_es": "Mezadot Yehuda", "name_ar": "متسودوت يهودا", "date_estab": 1983.0, "hectare": 3, "object_id": 28 }, "geometry": { "type": "Point", "coordinates": [ 35.41692, 31.90829 ] } },
{ "type": "Feature", "properties": { "settlement": "Settlement", "name_he": "מעון", "name_en": "Ma'on", "name_fr": "Ma'on", "name_es": "Maon", "name_ar": "ماعون", "date_estab": 1981.0, "hectare": 22, "object_id": 29 }, "geometry": { "type": "Point", "coordinates": [ 35.16374, 31.41208 ] } },
{ "type": "Feature", "properties": { "settlement": "Settlement", "name_he": "חרמש", "name_en": "Hermesh", "name_fr": "Hermesh", "name_es": "Hermesh", "name_ar": "حرميش", "date_estab": 1982.0, "hectare": 14, "object_id": 30 }, "geometry": { "type": "Point", "coordinates": [ 35.11913, 32.42342 ] } },
{ "type": "Feature", "properties": { "settlement": "Settlement", "name_he": "חיננית", "name_en": "Hinnanit", "name_fr": "Hinnanit", "name_es": "Hinnanit", "name_ar": "حينانيت", "date_estab": 1981.0, "hectare": 16, "object_id": 31 }, "geometry": { "type": "Point", "coordinates": [ 35.17266, 32.48053 ] } },
{ "type": "Feature", "properties": { "settlement": "Settlement", "name_he": "עמנואל", "name_en": "Immanuel", "name_fr": "Immanuel", "name_es": "Immanuel", "name_ar": "عمانوئيل", "date_estab": 1983.0, "hectare": 9, "object_id": 32 }, "geometry": { "type": "Point", "coordinates": [ 35.10256, 32.17968 ] } },
{ "type": "Feature", "properties": { "settlement": "Settlement", "name_he": "איתמר", "name_en": "Itamar", "name_fr": "Itamar", "name_es": "Itamar", "name_ar": "ايتمار", "date_estab": 1984.0, "hectare": 35, "object_id": 33 }, "geometry": { "type": "Point", "coordinates": [ 35.31663, 32.16981 ] } },
{ "type": "Feature", "properties": { "settlement": "Settlement", "name_he": "הר ברכה", "name_en": "Har Bracha", "name_fr": "Har Bracha", "name_es": "Har Braha", "name_ar": "هار برخا", "date_estab": 1983.0, "hectare": 29, "object_id": 34 }, "geometry": { "type": "Point", "coordinates": [ 35.26428, 32.19282 ] } },
{ "type": "Feature", "properties": { "settlement": "Settlement", "name_he": "חשמונאים", "name_en": "Hasmoneam", "name_fr": "Hasmoneam", "name_es": "Hashmonaim", "name_ar": "هشمونائيم", "date_estab": 1985.0, "hectare": 76, "object_id": 35 }, "geometry": { "type": "Point", "coordinates": [ 35.02091, 31.93037 ] } },
{ "type": "Feature", "properties": { "settlement": "Settlement", "name_he": "חמדת", "name_en": "Hemdat", "name_fr": "Hemdat", "name_es": "Hemdat", "name_ar": "حمدات", "date_estab": 1980.0, "hectare": 9, "object_id": 36 }, "geometry": { "type": "Point", "coordinates": [ 35.52648, 32.25134 ] } },
{ "type": "Feature", "properties": { "settlement": "Settlement", "name_he": "כפר תפוח", "name_en": "Kfar Tapuah", "name_fr": "Kfar Tapuah", "name_es": "Kfar Tapuah", "name_ar": "كفار تبواح", "date_estab": 1978.0, "hectare": 21, "object_id": 37 }, "geometry": { "type": "Point", "coordinates": [ 35.24819, 32.11804 ] } },
{ "type": "Feature", "properties": { "settlement": "Settlement", "name_he": "קריית נטפים", "name_en": "Kiryat Netafim", "name_fr": "Kiryat Netafim", "name_es": "Kiryat Netafim", "name_ar": "كريات ينتافيم", "date_estab": 1983.0, "hectare": 16, "object_id": 38 }, "geometry": { "type": "Point", "coordinates": [ 35.11238, 32.11696 ] } },
{ "type": "Feature", "properties": { "settlement": "Settlement", "name_he": "קרני שומרון", "name_en": "Karnei Shomron", "name_fr": "Karnei Shomron", "name_es": "Karnei Shomron", "name_ar": "كارني شومرون", "date_estab": 1978.0, "hectare": 120, "object_id": 39 }, "geometry": { "type": "Point", "coordinates": [ 35.0925, 32.17012 ] } },
{ "type": "Feature", "properties": { "settlement": "Settlement", "name_he": "קדומים", "name_en": "Kedumim", "name_fr": "Kedumim", "name_es": "Kedumim", "name_ar": "قدوميم", "date_estab": 1977.0, "hectare": 134, "object_id": 40 }, "geometry": { "type": "Point", "coordinates": [ 35.16052, 32.21728 ] } },
{ "type": "Feature", "properties": { "settlement": "Settlement", "name_he": "כפר אדומים", "name_en": "Kfar Adumim", "name_fr": "Kfar Adumim", "name_es": "Kfar Adumim", "name_ar": "كفار ادوميم", "date_estab": 1979.0, "hectare": 62, "object_id": 41 }, "geometry": { "type": "Point", "coordinates": [ 35.33404, 31.82406 ] } },
{ "type": "Feature", "properties": { "settlement": "Settlement in Gaza", "name_he": "קטיף", "name_en": "Qatif", "name_fr": "Qatif", "name_es": "Katif", "name_ar": "كطيف", "date_estab": 1978.0, "hectare": 16, "object_id": 42 }, "geometry": { "type": "Point", "coordinates": [ 34.3115, 31.37583 ] } },
{ "type": "Feature", "properties": { "settlement": "Settlement in Gaza", "name_he": "רפיח ים", "name_en": "Rafiah Yam", "name_fr": "Rafiah Yam", "name_es": "Rafiah Yam", "name_ar": "رفياح يام", "date_estab": 1984.0, "hectare": 15, "object_id": 43 }, "geometry": { "type": "Point", "coordinates": [ 34.23016, 31.31552 ] } },
{ "type": "Feature", "properties": { "settlement": "Settlement", "name_he": "עלי", "name_en": "Eli", "name_fr": "Eli", "name_es": "Eli", "name_ar": "ايلي", "date_estab": 1984.0, "hectare": 73, "object_id": 44 }, "geometry": { "type": "Point", "coordinates": [ 35.26734, 32.07243 ] } },
{ "type": "Feature", "properties": { "settlement": "Settlement in Gaza", "name_he": "נווה דקלים", "name_en": "Newe Deqalim", "name_fr": "Newe Deqalim", "name_es": "Nevé Dekalim", "name_ar": "نفي دكاليم", "date_estab": 1980.0, "hectare": 37, "object_id": 45 }, "geometry": { "type": "Point", "coordinates": [ 34.27636, 31.35162 ] } },
{ "type": "Feature", "properties": { "settlement": "Settlement", "name_he": "אלקנה", "name_en": "Elkana", "name_fr": "Elkana", "name_es": "Elkana", "name_ar": "الكانا", "date_estab": 1977.0, "hectare": 90, "object_id": 46 }, "geometry": { "type": "Point", "coordinates": [ 35.035, 32.11195 ] } },
{ "type": "Feature", "properties": { "settlement": "Settlement", "name_he": "אלון מורה", "name_en": "Elon Moreh", "name_fr": "Elon Moreh", "name_es": "Elon Moreh", "name_ar": "آلون موريه", "date_estab": 1979.0, "hectare": 58, "object_id": 47 }, "geometry": { "type": "Point", "coordinates": [ 35.33421, 32.23352 ] } },
{ "type": "Feature", "properties": { "settlement": "Settlement in Gaza", "name_he": "ניסנית", "name_en": "Nisanit", "name_fr": "Nisanit", "name_es": "Nisanit", "name_ar": "نيسانيت", "date_estab": 1982.0, "hectare": 39, "object_id": 48 }, "geometry": { "type": "Point", "coordinates": [ 34.53202, 31.56232 ] } },
{ "type": "Feature", "properties": { "settlement": "Settlement", "name_he": "כרמל", "name_en": "Carmel", "name_fr": "Carmel", "name_es": "Carmel", "name_ar": "الكرمل", "date_estab": 1981.0, "hectare": 20, "object_id": 49 }, "geometry": { "type": "Point", "coordinates": [ 35.18509, 31.43235 ] } },
{ "type": "Feature", "properties": { "settlement": "Settlement", "name_he": "דולב", "name_en": "Dolev", "name_fr": "Dolev", "name_es": "Dolev", "name_ar": "دوليف", "date_estab": 1983.0, "hectare": 30, "object_id": 50 }, "geometry": { "type": "Point", "coordinates": [ 35.13375, 31.92646 ] } },
{ "type": "Feature", "properties": { "settlement": "Settlement", "name_he": "אפרת", "name_en": "Efrat", "name_fr": "Efrat", "name_es": "Efrat", "name_ar": "افرات", "date_estab": 1980.0, "hectare": 108, "object_id": 51 }, "geometry": { "type": "Point", "coordinates": [ 35.15567, 31.66114 ] } },
{ "type": "Feature", "properties": { "settlement": "Settlement in East Jerusalem", "name_he": "פסגת זאב", "name_en": "Pisgat Ze'ev", "name_fr": "Pisgat Ze'ev", "name_es": "Pisgat Zeev", "name_ar": "بسجات زئب", "date_estab": 1985.0, "hectare": 260, "object_id": 52 }, "geometry": { "type": "Point", "coordinates": [ 35.24571, 31.82312 ] } },
{ "type": "Feature", "properties": { "settlement": "Settlement", "name_he": "ענב", "name_en": "Einav", "name_fr": "Einav", "name_es": "Einav", "name_ar": "عيناف", "date_estab": 1981.0, "hectare": 21, "object_id": 53 }, "geometry": { "type": "Point", "coordinates": [ 35.12649, 32.28496 ] } },
{ "type": "Feature", "properties": { "settlement": "Settlement", "name_he": "גבעת זאב", "name_en": "Giv'at Ze'ev", "name_fr": "Giv'at Ze'ev", "name_es": "Givat Zeev", "name_ar": "جفعات زئيف", "date_estab": 1983.0, "hectare": 107, "object_id": 54 }, "geometry": { "type": "Point", "coordinates": [ 35.16834, 31.86139 ] } },
{ "type": "Feature", "properties": { "settlement": "Settlement", "name_he": "גבעון החדשה", "name_en": "Givon Hahadasha", "name_fr": "Givon Hahadasha", "name_es": "Givon Hahadasha", "name_ar": "جيفعون هحدشاه", "date_estab": 1980.0, "hectare": 28, "object_id": 55 }, "geometry": { "type": "Point", "coordinates": [ 35.16276, 31.84861 ] } },
{ "type": "Feature", "properties": { "settlement": "Settlement in East Jerusalem", "name_he": "גבעת המטוס", "name_en": "Giv'at Hamatos", "name_fr": "Giv'at Hamatos", "name_es": "Givat Hamatos", "name_ar": "جفعات همطوس", "date_estab": 1991.0, "hectare": 13, "object_id": 56 }, "geometry": { "type": "Point", "coordinates": [ 35.2079, 31.73907 ] } },
{ "type": "Feature", "properties": { "settlement": "Settlement in East Jerusalem", "name_he": "הר חומה", "name_en": "Har Homa", "name_fr": "Har Homa", "name_es": "Har Homa", "name_ar": "هار حوما (جبل ابو غنيم)", "date_estab": 1991.0, "hectare": 125, "object_id": 57 }, "geometry": { "type": "Point", "coordinates": [ 35.22285, 31.72386 ] } },
{ "type": "Feature", "properties": { "settlement": "Settlement", "name_he": "הר אדר", "name_en": "Har Adar", "name_fr": "Har Adar", "name_es": "Har Adar", "name_ar": "هار ادار", "date_estab": 1986.0, "hectare": 81, "object_id": 58 }, "geometry": { "type": "Point", "coordinates": [ 35.12931, 31.82656 ] } },
{ "type": "Feature", "properties": { "settlement": "Settlement", "name_he": "אשכולות", "name_en": "Eshkolot", "name_fr": "Eshkolot", "name_es": "Eshkolot", "name_ar": "اشكلوت", "date_estab": 1982.0, "hectare": 9, "object_id": 59 }, "geometry": { "type": "Point", "coordinates": [ 34.90512, 31.39105 ] } },
{ "type": "Feature", "properties": { "settlement": "Settlement Enclave in Hebron", "name_he": "תל רומיידה", "name_en": "Tel Rumeidah", "name_fr": "Tel Rumeidah", "name_es": "Tel Rumeidah", "name_ar": "تل رميدة", "date_estab": 1983.0, "hectare": 1, "object_id": 60 }, "geometry": { "type": "Point", "coordinates": [ 35.10225, 31.52505 ] } },
{ "type": "Feature", "properties": { "settlement": "Settlement", "name_he": "עץ אפרים", "name_en": "Etz Efrayim", "name_fr": "Etz Efrayim", "name_es": "Etz Efrayim", "name_ar": "عتس افرايم", "date_estab": 1985.0, "hectare": 17, "object_id": 61 }, "geometry": { "type": "Point", "coordinates": [ 35.04649, 32.11944 ] } },
{ "type": "Feature", "properties": { "settlement": "Settlement in Gaza", "name_he": "בדולח", "name_en": "Bedolah", "name_fr": "Bedolah", "name_es": "Bedolah", "name_ar": "بدولح", "date_estab": 1986.0, "hectare": 9, "object_id": 62 }, "geometry": { "type": "Point", "coordinates": [ 34.25503, 31.32981 ] } },
{ "type": "Feature", "properties": { "settlement": "Settlement", "name_he": "אבני חפץ", "name_en": "Avne Hefetz", "name_fr": "Avne Hefetz", "name_es": "Avne Hefetz", "name_ar": "أفني حيفز", "date_estab": 1990.0, "hectare": 29, "object_id": 63 }, "geometry": { "type": "Point", "coordinates": [ 35.0742, 32.28636 ] } },
{ "type": "Feature", "properties": { "settlement": "Settlement Enclave in Hebron", "name_he": "אברהם אבינו", "name_en": "Avraham Avinu", "name_fr": "Avraham Avinu", "name_es": "Avraham Avinu", "name_ar": "سيدنا ابراهيم", "date_estab": 1981.0, "hectare": 2, "object_id": 64 }, "geometry": { "type": "Point", "coordinates": [ 35.10769, 31.52382 ] } },
{ "type": "Feature", "properties": { "settlement": "Settlement", "name_he": "ברקן", "name_en": "Barkan", "name_fr": "Barkan", "name_es": "Barkan", "name_ar": "بركان", "date_estab": 1981.0, "hectare": 110, "object_id": 65 }, "geometry": { "type": "Point", "coordinates": [ 35.11341, 32.10671 ] } },
{ "type": "Feature", "properties": { "settlement": "Settlement", "name_he": "בת עין", "name_en": "Bat Ayin", "name_fr": "Bat Ayin", "name_es": "Bat Ain", "name_ar": "بات عاين", "date_estab": 1989.0, "hectare": 41, "object_id": 66 }, "geometry": { "type": "Point", "coordinates": [ 35.10174, 31.65838 ] } },
{ "type": "Feature", "properties": { "settlement": "Settlement Enclave in Hebron", "name_he": "בית הדסה", "name_en": "Beit Hadassah", "name_fr": "Beit Hadassah", "name_es": "Beit Hadassah", "name_ar": "بيت هداسا", "date_estab": 1979.0, "hectare": 1, "object_id": 67 }, "geometry": { "type": "Point", "coordinates": [ 35.1046, 31.52593 ] } },
{ "type": "Feature", "properties": { "settlement": "Settlement", "name_he": "בית אל", "name_en": "Beit El", "name_fr": "Beit El", "name_es": "Beit El", "name_ar": "بيت ايل", "date_estab": 1977.0, "hectare": 78, "object_id": 68 }, "geometry": { "type": "Point", "coordinates": [ 35.22326, 31.94209 ] } },
{ "type": "Feature", "properties": { "settlement": "Settlement Enclave in Hebron", "name_he": "בית רומנו", "name_en": "Beit Romano", "name_fr": "Beit Romano", "name_es": "Beit Romano", "name_ar": "بيت رمانة", "date_estab": 1982.0, "hectare": 1, "object_id": 69 }, "geometry": { "type": "Point", "coordinates": [ 35.10562, 31.52507 ] } },
{ "type": "Feature", "properties": { "settlement": "Settlement", "name_he": "אריאל", "name_en": "Ari'el", "name_fr": "Ari'el", "name_es": "Ariel", "name_ar": "اريئيل", "date_estab": 1978.0, "hectare": 244, "object_id": 70 }, "geometry": { "type": "Point", "coordinates": [ 35.18784, 32.10488 ] } },
{ "type": "Feature", "properties": { "settlement": "Settlement in Gaza", "name_he": "גן אור", "name_en": "Gan Or", "name_fr": "Gan Or", "name_es": "Gan Or", "name_ar": "جان اور", "date_estab": 1983.0, "hectare": 16, "object_id": 71 }, "geometry": { "type": "Point", "coordinates": [ 34.25841, 31.33691 ] } },
{ "type": "Feature", "properties": { "settlement": "Settlement", "name_he": "אספר", "name_en": "Asefar", "name_fr": "Asefar", "name_es": "Asefar", "name_ar": "اسفار", "date_estab": 1983.0, "hectare": 14, "object_id": 72 }, "geometry": { "type": "Point", "coordinates": [ 35.18967, 31.58701 ] } },
{ "type": "Feature", "properties": { "settlement": "Settlement in Gaza", "name_he": "גני טל", "name_en": "Ganne Tal", "name_fr": "Ganne Tal", "name_es": "Ganei Tal", "name_ar": "جاني طال", "date_estab": 1979.0, "hectare": 26, "object_id": 73 }, "geometry": { "type": "Point", "coordinates": [ 34.30142, 31.37366 ] } },
{ "type": "Feature", "properties": { "settlement": "Settlement", "name_he": "עטרת", "name_en": "Ateret", "name_fr": "Ateret", "name_es": "Ateret", "name_ar": "عاطرت", "date_estab": 1981.0, "hectare": 16, "object_id": 74 }, "geometry": { "type": "Point", "coordinates": [ 35.17708, 32.00059 ] } },
{ "type": "Feature", "properties": { "settlement": "Settlement", "name_he": "אבנת", "name_en": "Avenat", "name_fr": "Avenat", "name_es": "Avenat", "name_ar": "افينات", "date_estab": 1983.0, "hectare": 4, "object_id": 75 }, "geometry": { "type": "Point", "coordinates": [ 35.43676, 31.6792 ] } },
{ "type": "Feature", "properties": { "settlement": "Settlement", "name_he": "בית אריה", "name_en": "Bet Arye", "name_fr": "Bet Arye", "name_es": "Bet Arie", "name_ar": "بيت اريه", "date_estab": 1981.0, "hectare": 78, "object_id": 76 }, "geometry": { "type": "Point", "coordinates": [ 35.05139, 32.03649 ] } },
{ "type": "Feature", "properties": { "settlement": "Settlement in Gaza", "name_he": "בני עצמון", "name_en": "Bene Azmon", "name_fr": "Bene Azmon", "name_es": "Bene Azmon", "name_ar": "بني عتسمون", "date_estab": 1979.0, "hectare": 16, "object_id": 77 }, "geometry": { "type": "Point", "coordinates": [ 34.25158, 31.32181 ] } },
{ "type": "Feature", "properties": { "settlement": "Settlement", "name_he": "בית חורון", "name_en": "Bet Horon", "name_fr": "Bet Horon", "name_es": "Bet Horon", "name_ar": "بين حورون", "date_estab": 1977.0, "hectare": 17, "object_id": 78 }, "geometry": { "type": "Point", "coordinates": [ 35.12694, 31.87801 ] } },
{ "type": "Feature", "properties": { "settlement": "Settlement in Gaza", "name_he": "דוגית", "name_en": "Dugit", "name_fr": "Dugit", "name_es": "Dugit", "name_ar": "دوجيت", "date_estab": 1990.0, "hectare": 8, "object_id": 79 }, "geometry": { "type": "Point", "coordinates": [ 34.48953, 31.57385 ] } },
{ "type": "Feature", "properties": { "settlement": "Settlement in Gaza", "name_he": "אלי סיני", "name_en": "Ele Sinay", "name_fr": "Ele Sinay", "name_es": "Elei Sinay", "name_ar": "ايلي سيناي", "date_estab": 1982.0, "hectare": 17, "object_id": 80 }, "geometry": { "type": "Point", "coordinates": [ 34.50315, 31.58382 ] } },
{ "type": "Feature", "properties": { "settlement": "Settlement", "name_he": "כרמי צור", "name_en": "Carmei Tzur", "name_fr": "Carmei Tzur", "name_es": "Carmei Tzur", "name_ar": "كرمي تسور", "date_estab": 1984.0, "hectare": 14, "object_id": 81 }, "geometry": { "type": "Point", "coordinates": [ 35.10062, 31.609 ] } },
{ "type": "Feature", "properties": { "settlement": "Settlement in Gaza", "name_he": "גדיד", "name_en": "Gadid", "name_fr": "Gadid", "name_es": "Gadid", "name_ar": "جديد", "date_estab": 1982.0, "hectare": 19, "object_id": 82 }, "geometry": { "type": "Point", "coordinates": [ 34.27589, 31.34393 ] } },
{ "type": "Feature", "properties": { "settlement": "Settlement", "name_he": "בית הערבה", "name_en": "Beit Ha'arava", "name_fr": "Beit Ha'arava", "name_es": "Beit Haarava", "name_ar": "بين هعرافا", "date_estab": 1980.0, "hectare": 6, "object_id": 83 }, "geometry": { "type": "Point", "coordinates": [ 35.47766, 31.80825 ] } },
{ "type": "Feature", "properties": { "settlement": "Settlement", "name_he": "בית חגי", "name_en": "Beit Hagai", "name_fr": "Beit Hagai", "name_es": "Beit Hagai", "name_ar": "بيت حجاي", "date_estab": 1984.0, "hectare": 16, "object_id": 84 }, "geometry": { "type": "Point", "coordinates": [ 35.07995, 31.49304 ] } },
{ "type": "Feature", "properties": { "settlement": "Settlement", "name_he": "ביתר עילית", "name_en": "Beitar Illit", "name_fr": "Beitar Illit", "name_es": "Beitar Illit", "name_ar": "بيتار عيليت", "date_estab": 1985.0, "hectare": 196, "object_id": 85 }, "geometry": { "type": "Point", "coordinates": [ 35.11389, 31.69778 ] } },
{ "type": "Feature", "properties": { "settlement": "Settlement Outpost", "name_he": "טל מנשה", "name_en": "Tal Menashe", "name_fr": "Tal Menashe", "name_es": "Tal Menashe", "name_ar": "طل منشيه", "date_estab": 1991.0, "hectare": 13, "object_id": 86 }, "geometry": { "type": "Point", "coordinates": [ 35.15988, 32.48225 ] } },
{ "type": "Feature", "properties": { "settlement": "Settlement", "name_he": "יקיר", "name_en": "Yaqir", "name_fr": "Yaqir", "name_es": "Yakir", "name_ar": "ياكير", "date_estab": 1981.0, "hectare": 31, "object_id": 87 }, "geometry": { "type": "Point", "coordinates": [ 35.11367, 32.14969 ] } },
{ "type": "Feature", "properties": { "settlement": "Settlement", "name_he": "אלמוג", "name_en": "Almog", "name_fr": "Almog", "name_es": "Almog", "name_ar": "الموج", "date_estab": 1977.0, "hectare": 10, "object_id": 88 }, "geometry": { "type": "Point", "coordinates": [ 35.46112, 31.78989 ] } },
{ "type": "Feature", "properties": { "settlement": "Settlement", "name_he": "עלמון", "name_en": "Almon", "name_fr": "Almon", "name_es": "Almon", "name_ar": "المون", "date_estab": 1982.0, "hectare": 22, "object_id": 89 }, "geometry": { "type": "Point", "coordinates": [ 35.29451, 31.82987 ] } },
{ "type": "Feature", "properties": { "settlement": "Settlement", "name_he": "יצהר", "name_en": "Yizhar", "name_fr": "Yizhar", "name_es": "Yizhar", "name_ar": "يزهار", "date_estab": 1983.0, "hectare": 30, "object_id": 90 }, "geometry": { "type": "Point", "coordinates": [ 35.23887, 32.16639 ] } },
{ "type": "Feature", "properties": { "settlement": "Settlement", "name_he": "צופין (צופים)", "name_en": "Zufin (Zufim)", "name_fr": "Zufin (Zufim)", "name_es": "Zufin (Zufim)", "name_ar": "تسوفين (تسوفيم)", "date_estab": 1989.0, "hectare": 22, "object_id": 91 }, "geometry": { "type": "Point", "coordinates": [ 35.00913, 32.19859 ] } },
{ "type": "Feature", "properties": { "settlement": "Settlement", "name_he": "אדם (גבע בנימין)", "name_en": "Adam (Geva Binyamin)", "name_fr": "Adam (Geva Binyamin)", "name_es": "Adán (Geva Binyamin)", "name_ar": "أدم (جبع بنيامين)", "date_estab": 1984.0, "hectare": 46, "object_id": 92 }, "geometry": { "type": "Point", "coordinates": [ 35.27467, 31.84969 ] } },
{ "type": "Feature", "properties": { "settlement": "Settlement", "name_he": "אדורה", "name_en": "Adora", "name_fr": "Adora", "name_es": "Adora", "name_ar": "ادورا", "date_estab": 1984.0, "hectare": 10, "object_id": 93 }, "geometry": { "type": "Point", "coordinates": [ 35.01724, 31.55227 ] } },
{ "type": "Feature", "properties": { "settlement": "Settlement", "name_he": "עלי זהב", "name_en": "Alei Zahav", "name_fr": "Alei Zahav", "name_es": "Alei Zahav", "name_ar": "ايلي زهاف", "date_estab": 1982.0, "hectare": 24, "object_id": 94 }, "geometry": { "type": "Point", "coordinates": [ 35.06618, 32.0713 ] } },
{ "type": "Feature", "properties": { "settlement": "Settlement", "name_he": "שקד", "name_en": "Shaqed", "name_fr": "Shaqed", "name_es": "Shaked", "name_ar": "شكيد", "date_estab": 1981.0, "hectare": 21, "object_id": 95 }, "geometry": { "type": "Point", "coordinates": [ 35.16869, 32.47367 ] } },
{ "type": "Feature", "properties": { "settlement": "Settlement", "name_he": "שבי שומרון", "name_en": "Shavei Shomron", "name_fr": "Shavei Shomron", "name_es": "Shavei Shomron", "name_ar": "شفي شومرون", "date_estab": 1977.0, "hectare": 34, "object_id": 96 }, "geometry": { "type": "Point", "coordinates": [ 35.18508, 32.26331 ] } },
{ "type": "Feature", "properties": { "settlement": "Settlement Outpost", "name_he": "נריה", "name_en": "Nerya", "name_fr": "Nerya", "name_es": "Nerya", "name_ar": "نريا", "date_estab": 1991.0, "hectare": 11, "object_id": 97 }, "geometry": { "type": "Point", "coordinates": [ 35.13542, 31.95095 ] } },
{ "type": "Feature", "properties": { "settlement": "Settlement", "name_he": "שילה", "name_en": "Shilo", "name_fr": "Shilo", "name_es": "Shilo", "name_ar": "شيلو", "date_estab": 1979.0, "hectare": 57, "object_id": 98 }, "geometry": { "type": "Point", "coordinates": [ 35.3006, 32.05294 ] } },
{ "type": "Feature", "properties": { "settlement": "Settlement", "name_he": "שמעה", "name_en": "Shim'a", "name_fr": "Shim'a", "name_es": "Shima", "name_ar": "شيمعا", "date_estab": 1985.0, "hectare": 12, "object_id": 99 }, "geometry": { "type": "Point", "coordinates": [ 35.01322, 31.38817 ] } },
{ "type": "Feature", "properties": { "settlement": "Settlement", "name_he": "סלעית", "name_en": "Sal'it", "name_fr": "Sal'it", "name_es": "Salit", "name_ar": "سلعيت", "date_estab": 1977.0, "hectare": 36, "object_id": 100 }, "geometry": { "type": "Point", "coordinates": [ 35.10298, 32.25634 ] } },
{ "type": "Feature", "properties": { "settlement": "Settlement", "name_he": "שערי תקווה", "name_en": "Sha'arei Tikva", "name_fr": "Sha'arei Tikva", "name_es": "Shaiarei Tikva", "name_ar": "شاعر تيكفا", "date_estab": 1983.0, "hectare": 88, "object_id": 101 }, "geometry": { "type": "Point", "coordinates": [ 35.02612, 32.12318 ] } },
{ "type": "Feature", "properties": { "settlement": "Settlement", "name_he": "שדמות מחולה", "name_en": "Shademot Mehola", "name_fr": "Shademot Mehola", "name_es": "Shademot Mehola", "name_ar": "شدموت محولة", "date_estab": 1979.0, "hectare": 36, "object_id": 102 }, "geometry": { "type": "Point", "coordinates": [ 35.53468, 32.34649 ] } },
{ "type": "Feature", "properties": { "settlement": "Settlement", "name_he": "טנא", "name_en": "Tene", "name_fr": "Tene", "name_es": "Tene", "name_ar": "طينيه", "date_estab": 1983.0, "hectare": 16, "object_id": 103 }, "geometry": { "type": "Point", "coordinates": [ 34.95716, 31.37546 ] } },
{ "type": "Feature", "properties": { "settlement": "Settlement", "name_he": "תומר", "name_en": "Tomer", "name_fr": "Tomer", "name_es": "Tomer", "name_ar": "تومر", "date_estab": 1978.0, "hectare": 29, "object_id": 104 }, "geometry": { "type": "Point", "coordinates": [ 35.43905, 32.01911 ] } },
{ "type": "Feature", "properties": { "settlement": "Settlement", "name_he": "ורד יריחו", "name_en": "Vered Yeriho", "name_fr": "Vered Yeriho", "name_es": "Vered Yeriho", "name_ar": "وردة اريحا", "date_estab": 1980.0, "hectare": 13, "object_id": 105 }, "geometry": { "type": "Point", "coordinates": [ 35.43206, 31.82646 ] } },
{ "type": "Feature", "properties": { "settlement": "Settlement", "name_he": "יפית", "name_en": "Yafit", "name_fr": "Yafit", "name_es": "Yafit", "name_ar": "يافيت", "date_estab": 1980.0, "hectare": 31, "object_id": 106 }, "geometry": { "type": "Point", "coordinates": [ 35.47355, 32.06229 ] } },
{ "type": "Feature", "properties": { "settlement": "Settlement", "name_he": "סוסיא", "name_en": "Susiya", "name_fr": "Susiya", "name_es": "Susiya", "name_ar": "سوسيا", "date_estab": 1983.0, "hectare": 28, "object_id": 107 }, "geometry": { "type": "Point", "coordinates": [ 35.11323, 31.39297 ] } },
{ "type": "Feature", "properties": { "settlement": "Settlement", "name_he": "טלמון", "name_en": "Talmon", "name_fr": "Talmon", "name_es": "Talmon", "name_ar": "تلمون", "date_estab": 1989.0, "hectare": 51, "object_id": 108 }, "geometry": { "type": "Point", "coordinates": [ 35.13249, 31.94573 ] } },
{ "type": "Feature", "properties": { "settlement": "Settlement", "name_he": "תקוע", "name_en": "Tekoa", "name_fr": "Tekoa", "name_es": "Tekoa", "name_ar": "تقوع", "date_estab": 1977.0, "hectare": 50, "object_id": 109 }, "geometry": { "type": "Point", "coordinates": [ 35.23069, 31.64935 ] } },
{ "type": "Feature", "properties": { "settlement": "Settlement", "name_he": "תלם", "name_en": "Telem", "name_fr": "Telem", "name_es": "Telem", "name_ar": "تيليم", "date_estab": 1982.0, "hectare": 10, "object_id": 110 }, "geometry": { "type": "Point", "coordinates": [ 35.0314, 31.56402 ] } },
{ "type": "Feature", "properties": { "settlement": "Settlement", "name_he": "פני חבר", "name_en": "Pnei Hever", "name_fr": "Pnei Hever", "name_es": "Pnei Hever", "name_ar": "بني حيفير", "date_estab": 1982.0, "hectare": 11, "object_id": 111 }, "geometry": { "type": "Point", "coordinates": [ 35.16547, 31.48659 ] } },
{ "type": "Feature", "properties": { "settlement": "Settlement", "name_he": "פסגות", "name_en": "Psagot", "name_fr": "Psagot", "name_es": "Psagot", "name_ar": "بساجوت", "date_estab": 1981.0, "hectare": 24, "object_id": 112 }, "geometry": { "type": "Point", "coordinates": [ 35.2247, 31.89889 ] } }
]
}
